{
  "en": {
    "sub_districts": [
      {
        "id": "100101",
        "name": "Phra Borom Maha Ratchawang",
        "latitude": 13.751,
        "longitude": 100.492,
        "district_id": "1001",
        "province_id": "10"
      },
      {
        "id": "100102",
        "name": "Wang Burapha Phirom",
        "latitude": 13.744,
        "longitude": 100.499,
        "district_id": "1001",
        "province_id": "10"
      },
      {
        "id": "100103",
        "name": "Wat Ratchabophit",
        "latitude": 13.75,
        "longitude": 100.499,
        "district_id": "1001",
        "province_id": "10"
      },
      {
        "id": "100104",
        "name": "Samran Rat",
        "latitude": 13.751,
        "longitude": 100.503,
        "district_id": "1001",
        "province_id": "10"
      },
      {
        "id": "100105",
        "name": "San Chaopho Suea",
        "latitude": 13.754,
        "longitude": 100.497,
        "district_id": "1001",
        "province_id": "10"
      },
      {
        "id": "100106",
        "name": "Sao Chingcha",
        "latitude": 13.753,
        "longitude": 100.5,
        "district_id": "1001",
        "province_id": "10"
      },
      {
        "id": "100107",
        "name": "Bowon Niwet",
        "latitude": 13.757,
        "longitude": 100.501,
        "district_id": "1001",
        "province_id": "10"
      },
      {
        "id": "100108",
        "name": "Talat Yot",
        "latitude": 13.76,
        "longitude": 100.498,
        "district_id": "1001",
        "province_id": "10"
      },
      {
        "id": "100109",
        "name": "Chana Songkhram",
        "latitude": 13.762,
        "longitude": 100.495,
        "district_id": "1001",
        "province_id": "10"
      },
      {
        "id": "100110",
        "name": "Ban Phan Thom",
        "latitude": 13.762,
        "longitude": 100.503,
        "district_id": "1001",
        "province_id": "10"
      },
      {
        "id": "100111",
        "name": "Bang Khun Phrom",
        "latitude": 13.765,
        "longitude": 100.505,
        "district_id": "1001",
        "province_id": "10"
      },
      {
        "id": "100112",
        "name": "Wat Sam Phraya",
        "latitude": 13.768,
        "longitude": 100.499,
        "district_id": "1001",
        "province_id": "10"
      },
      {
        "id": "100201",
        "name": "Dusit",
        "latitude": 13.772,
        "longitude": 100.513,
        "district_id": "1002",
        "province_id": "10"
      },
      {
        "id": "100202",
        "name": "Wachira Phayaban",
        "latitude": 13.778,
        "longitude": 100.505,
        "district_id": "1002",
        "province_id": "10"
      },
      {
        "id": "100203",
        "name": "Suan Chit Lada",
        "latitude": 13.767,
        "longitude": 100.52,
        "district_id": "1002",
        "province_id": "10"
      },
      {
        "id": "100204",
        "name": "Si Yaek Maha Nak",
        "latitude": 13.758,
        "longitude": 100.517,
        "district_id": "1002",
        "province_id": "10"
      },
      {
        "id": "100206",
        "name": "Thanon Nakhon Chai Si",
        "latitude": 13.789,
        "longitude": 100.522,
        "district_id": "1002",
        "province_id": "10"
      },
      {
        "id": "100301",
        "name": "Krathum Rai",
        "latitude": 13.823,
        "longitude": 100.897,
        "district_id": "1003",
        "province_id": "10"
      },
      {
        "id": "100302",
        "name": "Nong Chok",
        "latitude": 13.869,
        "longitude": 100.885,
        "district_id": "1003",
        "province_id": "10"
      },
      {
        "id": "100303",
        "name": "Khlong Sip",
        "latitude": 13.914,
        "longitude": 100.82,
        "district_id": "1003",
        "province_id": "10"
      },
      {
        "id": "100304",
        "name": "Khlong Sip Song",
        "latitude": 13.914,
        "longitude": 100.88,
        "district_id": "1003",
        "province_id": "10"
      },
      {
        "id": "100305",
        "name": "Khok Faet",
        "latitude": 13.84,
        "longitude": 100.836,
        "district_id": "1003",
        "province_id": "10"
      },
      {
        "id": "100306",
        "name": "Khu Fang Nuea",
        "latitude": 13.872,
        "longitude": 100.81,
        "district_id": "1003",
        "province_id": "10"
      },
      {
        "id": "100307",
        "name": "Lam Phakchi",
        "latitude": 13.797,
        "longitude": 100.844,
        "district_id": "1003",
        "province_id": "10"
      },
      {
        "id": "100308",
        "name": "Lam Toi Ting",
        "latitude": 13.781,
        "longitude": 100.877,
        "district_id": "1003",
        "province_id": "10"
      },
      {
        "id": "100401",
        "name": "Mahapruttaram",
        "latitude": 13.734,
        "longitude": 100.52,
        "district_id": "1004",
        "province_id": "10"
      },
      {
        "id": "100402",
        "name": "Silom",
        "latitude": 13.73,
        "longitude": 100.525,
        "district_id": "1004",
        "province_id": "10"
      },
      {
        "id": "100403",
        "name": "Suriyawong",
        "latitude": 13.724,
        "longitude": 100.53,
        "district_id": "1004",
        "province_id": "10"
      },
      {
        "id": "100404",
        "name": "Bang Rak",
        "latitude": 13.727,
        "longitude": 100.527,
        "district_id": "1004",
        "province_id": "10"
      },
      {
        "id": "100405",
        "name": "Si Phraya",
        "latitude": 13.725,
        "longitude": 100.514,
        "district_id": "1004",
        "province_id": "10"
      },
      {
        "id": "100502",
        "name": "Anusawari",
        "latitude": 13.868,
        "longitude": 100.606,
        "district_id": "1005",
        "province_id": "10"
      },
      {
        "id": "100508",
        "name": "Tha Raeng",
        "latitude": 13.866,
        "longitude": 100.65,
        "district_id": "1005",
        "province_id": "10"
      },
      {
        "id": "100601",
        "name": "Khlong Chan",
        "latitude": 13.786,
        "longitude": 100.635,
        "district_id": "1006",
        "province_id": "10"
      },
      {
        "id": "100608",
        "name": "Hua Mak",
        "latitude": 13.756,
        "longitude": 100.66,
        "district_id": "1006",
        "province_id": "10"
      },
      {
        "id": "100701",
        "name": "Rong Mueang",
        "latitude": 13.744,
        "longitude": 100.52,
        "district_id": "1007",
        "province_id": "10"
      },
      {
        "id": "100702",
        "name": "Wang Mai",
        "latitude": 13.742,
        "longitude": 100.526,
        "district_id": "1007",
        "province_id": "10"
      },
      {
        "id": "100703",
        "name": "Pathum Wan",
        "latitude": 13.74,
        "longitude": 100.535,
        "district_id": "1007",
        "province_id": "10"
      },
      {
        "id": "100704",
        "name": "Lumphini",
        "latitude": 13.736,
        "longitude": 100.546,
        "district_id": "1007",
        "province_id": "10"
      },
      {
        "id": "100801",
        "name": "Pom Prap",
        "latitude": 13.743,
        "longitude": 100.514,
        "district_id": "1008",
        "province_id": "10"
      },
      {
        "id": "100802",
        "name": "Wat Debsirin",
        "latitude": 13.749,
        "longitude": 100.512,
        "district_id": "1008",
        "province_id": "10"
      },
      {
        "id": "100803",
        "name": "Khlong Mahanak",
        "latitude": 13.753,
        "longitude": 100.513,
        "district_id": "1008",
        "province_id": "10"
      },
      {
        "id": "100804",
        "name": "Ban Bat",
        "latitude": 13.752,
        "longitude": 100.507,
        "district_id": "1008",
        "province_id": "10"
      },
      {
        "id": "100805",
        "name": "Wat Somanas",
        "latitude": 13.759,
        "longitude": 100.511,
        "district_id": "1008",
        "province_id": "10"
      },
      {
        "id": "100905",
        "name": "Bang Chak",
        "latitude": 13.692,
        "longitude": 100.626,
        "district_id": "1009",
        "province_id": "10"
      },
      {
        "id": "101001",
        "name": "Min Buri",
        "latitude": 13.804,
        "longitude": 100.723,
        "district_id": "1010",
        "province_id": "10"
      },
      {
        "id": "101002",
        "name": "San Saab",
        "latitude": 13.812,
        "longitude": 100.774,
        "district_id": "1010",
        "province_id": "10"
      },
      {
        "id": "101101",
        "name": "Lat Krabang",
        "latitude": 13.723,
        "longitude": 100.771,
        "district_id": "1011",
        "province_id": "10"
      },
      {
        "id": "101102",
        "name": "Khlong Song Ton Nun",
        "latitude": 13.753,
        "longitude": 100.723,
        "district_id": "1011",
        "province_id": "10"
      },
      {
        "id": "101103",
        "name": "Khlong Sam Prawet",
        "latitude": 13.753,
        "longitude": 100.754,
        "district_id": "1011",
        "province_id": "10"
      },
      {
        "id": "101104",
        "name": "Lam Pla Thew",
        "latitude": 13.765,
        "longitude": 100.817,
        "district_id": "1011",
        "province_id": "10"
      },
      {
        "id": "101105",
        "name": "Thap Yao",
        "latitude": 13.728,
        "longitude": 100.815,
        "district_id": "1011",
        "province_id": "10"
      },
      {
        "id": "101106",
        "name": "Khun Thong",
        "latitude": 13.736,
        "longitude": 100.855,
        "district_id": "1011",
        "province_id": "10"
      },
      {
        "id": "101203",
        "name": "Chong Nonsi",
        "latitude": 13.682,
        "longitude": 100.533,
        "district_id": "1012",
        "province_id": "10"
      },
      {
        "id": "101204",
        "name": "Bang Phong Phang",
        "latitude": 13.697,
        "longitude": 100.544,
        "district_id": "1012",
        "province_id": "10"
      },
      {
        "id": "101301",
        "name": "Chakkrawat",
        "latitude": 13.741,
        "longitude": 100.504,
        "district_id": "1013",
        "province_id": "10"
      },
      {
        "id": "101302",
        "name": "Samphanthawong",
        "latitude": 13.739,
        "longitude": 100.511,
        "district_id": "1013",
        "province_id": "10"
      },
      {
        "id": "101303",
        "name": "Talat Noi",
        "latitude": 13.734,
        "longitude": 100.513,
        "district_id": "1013",
        "province_id": "10"
      },
      {
        "id": "101401",
        "name": "Samsen Nai",
        "latitude": 13.782,
        "longitude": 100.545,
        "district_id": "1014",
        "province_id": "10"
      },
      {
        "id": "101501",
        "name": "Wat Kanlaya",
        "latitude": 13.737,
        "longitude": 100.493,
        "district_id": "1015",
        "province_id": "10"
      },
      {
        "id": "101502",
        "name": "Hiran Ruchi",
        "latitude": 13.731,
        "longitude": 100.49,
        "district_id": "1015",
        "province_id": "10"
      },
      {
        "id": "101503",
        "name": "Bang Yi Ruea",
        "latitude": 13.72,
        "longitude": 100.482,
        "district_id": "1015",
        "province_id": "10"
      },
      {
        "id": "101504",
        "name": "Bukkhalo",
        "latitude": 13.707,
        "longitude": 100.486,
        "district_id": "1015",
        "province_id": "10"
      },
      {
        "id": "101505",
        "name": "Talad Plu",
        "latitude": 13.715,
        "longitude": 100.473,
        "district_id": "1015",
        "province_id": "10"
      },
      {
        "id": "101506",
        "name": "Dao Khanong",
        "latitude": 13.703792,
        "longitude": 100.484522,
        "district_id": "1015",
        "province_id": "10"
      },
      {
        "id": "101507",
        "name": "Samre",
        "latitude": 13.711136,
        "longitude": 100.4921096,
        "district_id": "1015",
        "province_id": "10"
      },
      {
        "id": "101601",
        "name": "Wat Arun",
        "latitude": 13.743,
        "longitude": 100.486,
        "district_id": "1016",
        "province_id": "10"
      },
      {
        "id": "101602",
        "name": "Wat Tha Phra",
        "latitude": 13.733,
        "longitude": 100.475,
        "district_id": "1016",
        "province_id": "10"
      },
      {
        "id": "101701",
        "name": "Huai Khwang",
        "latitude": 13.769,
        "longitude": 100.577,
        "district_id": "1017",
        "province_id": "10"
      },
      {
        "id": "101702",
        "name": "Bang Kapi",
        "latitude": 13.752,
        "longitude": 100.586,
        "district_id": "1017",
        "province_id": "10"
      },
      {
        "id": "101704",
        "name": "Samsen Nok",
        "latitude": 13.796,
        "longitude": 100.579,
        "district_id": "1017",
        "province_id": "10"
      },
      {
        "id": "101801",
        "name": "Somdet Chaopraya",
        "latitude": 13.731,
        "longitude": 100.497,
        "district_id": "1018",
        "province_id": "10"
      },
      {
        "id": "101802",
        "name": "Khlong San",
        "latitude": 13.735,
        "longitude": 100.504,
        "district_id": "1018",
        "province_id": "10"
      },
      {
        "id": "101803",
        "name": "Bang Lamphu Lang",
        "latitude": 13.715,
        "longitude": 100.501,
        "district_id": "1018",
        "province_id": "10"
      },
      {
        "id": "101804",
        "name": "Khlong Ton Sai",
        "latitude": 13.725,
        "longitude": 100.508,
        "district_id": "1018",
        "province_id": "10"
      },
      {
        "id": "101901",
        "name": "Khlong Chak Phra",
        "latitude": 13.76,
        "longitude": 100.456,
        "district_id": "1019",
        "province_id": "10"
      },
      {
        "id": "101902",
        "name": "Taling Chan",
        "latitude": 13.789,
        "longitude": 100.459,
        "district_id": "1019",
        "province_id": "10"
      },
      {
        "id": "101903",
        "name": "Chimplee",
        "latitude": 13.786,
        "longitude": 100.432,
        "district_id": "1019",
        "province_id": "10"
      },
      {
        "id": "101904",
        "name": "Bang Phrom",
        "latitude": 13.752,
        "longitude": 100.442,
        "district_id": "1019",
        "province_id": "10"
      },
      {
        "id": "101905",
        "name": "Bang Ramat",
        "latitude": 13.767,
        "longitude": 100.431,
        "district_id": "1019",
        "province_id": "10"
      },
      {
        "id": "101907",
        "name": "Bang Chueak Nang",
        "latitude": 13.751,
        "longitude": 100.419,
        "district_id": "1019",
        "province_id": "10"
      },
      {
        "id": "102004",
        "name": "Siriraj",
        "latitude": 13.759,
        "longitude": 100.481,
        "district_id": "1020",
        "province_id": "10"
      },
      {
        "id": "102005",
        "name": "Ban Chang Lo",
        "latitude": 13.752,
        "longitude": 100.477,
        "district_id": "1020",
        "province_id": "10"
      },
      {
        "id": "102006",
        "name": "Bang Khun Non",
        "latitude": 13.774,
        "longitude": 100.466,
        "district_id": "1020",
        "province_id": "10"
      },
      {
        "id": "102007",
        "name": "Bang Khun Si",
        "latitude": 13.76,
        "longitude": 100.463,
        "district_id": "1020",
        "province_id": "10"
      },
      {
        "id": "102009",
        "name": "Arun Ammarin",
        "latitude": 13.772,
        "longitude": 100.477,
        "district_id": "1020",
        "province_id": "10"
      },
      {
        "id": "102105",
        "name": "Tha Kham",
        "latitude": 13.555,
        "longitude": 100.434,
        "district_id": "1021",
        "province_id": "10"
      },
      {
        "id": "102107",
        "name": "Samae Dam",
        "latitude": 13.605,
        "longitude": 100.395,
        "district_id": "1021",
        "province_id": "10"
      },
      {
        "id": "102201",
        "name": "Bang Wa",
        "latitude": 13.714,
        "longitude": 100.443,
        "district_id": "1022",
        "province_id": "10"
      },
      {
        "id": "102202",
        "name": "Bang Duan",
        "latitude": 13.723,
        "longitude": 100.437,
        "district_id": "1022",
        "province_id": "10"
      },
      {
        "id": "102206",
        "name": "Bang Chak",
        "latitude": 13.727,
        "longitude": 100.45,
        "district_id": "1022",
        "province_id": "10"
      },
      {
        "id": "102207",
        "name": "Bang Waek",
        "latitude": 13.736,
        "longitude": 100.445,
        "district_id": "1022",
        "province_id": "10"
      },
      {
        "id": "102208",
        "name": "Khlong Khwang",
        "latitude": 13.738,
        "longitude": 100.423,
        "district_id": "1022",
        "province_id": "10"
      },
      {
        "id": "102209",
        "name": "Pak Khlong Phasi Charoen",
        "latitude": 13.722,
        "longitude": 100.464,
        "district_id": "1022",
        "province_id": "10"
      },
      {
        "id": "102210",
        "name": "Khuha Sawan",
        "latitude": 13.727,
        "longitude": 100.457,
        "district_id": "1022",
        "province_id": "10"
      },
      {
        "id": "102302",
        "name": "Nong Khaem",
        "latitude": 13.68,
        "longitude": 100.358,
        "district_id": "1023",
        "province_id": "10"
      },
      {
        "id": "102303",
        "name": "Nong Khang Phlu",
        "latitude": 13.714,
        "longitude": 100.351,
        "district_id": "1023",
        "province_id": "10"
      },
      {
        "id": "102401",
        "name": "Rat Burana",
        "latitude": 13.67,
        "longitude": 100.51,
        "district_id": "1024",
        "province_id": "10"
      },
      {
        "id": "102402",
        "name": "Bang Pakok",
        "latitude": 13.675,
        "longitude": 100.491,
        "district_id": "1024",
        "province_id": "10"
      },
      {
        "id": "102501",
        "name": "Bang Phlat",
        "latitude": 13.791,
        "longitude": 100.487,
        "district_id": "1025",
        "province_id": "10"
      },
      {
        "id": "102502",
        "name": "Bang Ao",
        "latitude": 13.802,
        "longitude": 100.512,
        "district_id": "1025",
        "province_id": "10"
      },
      {
        "id": "102503",
        "name": "Bang Bamru",
        "latitude": 13.781,
        "longitude": 100.482,
        "district_id": "1025",
        "province_id": "10"
      },
      {
        "id": "102504",
        "name": "Bang Yikhan",
        "latitude": 13.774,
        "longitude": 100.492,
        "district_id": "1025",
        "province_id": "10"
      },
      {
        "id": "102601",
        "name": "Din Daeng",
        "latitude": 13.778,
        "longitude": 100.567,
        "district_id": "1026",
        "province_id": "10"
      },
      {
        "id": "102701",
        "name": "Khlong Kum",
        "latitude": 13.808,
        "longitude": 100.65,
        "district_id": "1027",
        "province_id": "10"
      },
      {
        "id": "102702",
        "name": "Nawamin",
        "latitude": 13.8051371,
        "longitude": 100.6386421,
        "district_id": "1027",
        "province_id": "10"
      },
      {
        "id": "102703",
        "name": "Nuan Chan",
        "latitude": 13.828647,
        "longitude": 100.6451293,
        "district_id": "1027",
        "province_id": "10"
      },
      {
        "id": "102801",
        "name": "Thung Wat Don",
        "latitude": 13.71,
        "longitude": 100.532,
        "district_id": "1028",
        "province_id": "10"
      },
      {
        "id": "102802",
        "name": "Yan Nawa",
        "latitude": 13.714,
        "longitude": 100.514,
        "district_id": "1028",
        "province_id": "10"
      },
      {
        "id": "102803",
        "name": "Thung Mahamek",
        "latitude": 13.718,
        "longitude": 100.541,
        "district_id": "1028",
        "province_id": "10"
      },
      {
        "id": "102901",
        "name": "Bang Sue",
        "latitude": 13.82,
        "longitude": 100.529,
        "district_id": "1029",
        "province_id": "10"
      },
      {
        "id": "102902",
        "name": "Wong Sawang",
        "latitude": 13.831378,
        "longitude": 100.5250501,
        "district_id": "1029",
        "province_id": "10"
      },
      {
        "id": "103001",
        "name": "Lat Yao",
        "latitude": 13.826,
        "longitude": 100.565,
        "district_id": "1030",
        "province_id": "10"
      },
      {
        "id": "103002",
        "name": "Sena Nikhom",
        "latitude": 13.8452986,
        "longitude": 100.5816588,
        "district_id": "1030",
        "province_id": "10"
      },
      {
        "id": "103003",
        "name": "Chan Kasem",
        "latitude": 13.8179313,
        "longitude": 100.5791198,
        "district_id": "1030",
        "province_id": "10"
      },
      {
        "id": "103004",
        "name": "Chom Phon",
        "latitude": 13.8108201,
        "longitude": 100.563192,
        "district_id": "1030",
        "province_id": "10"
      },
      {
        "id": "103005",
        "name": "Chatuchak",
        "latitude": 13.8134712,
        "longitude": 100.5527565,
        "district_id": "1030",
        "province_id": "10"
      },
      {
        "id": "103101",
        "name": "Bang Kho Laem",
        "latitude": 13.696,
        "longitude": 100.494,
        "district_id": "1031",
        "province_id": "10"
      },
      {
        "id": "103102",
        "name": "Wat Phraya Krai",
        "latitude": 13.706,
        "longitude": 100.508,
        "district_id": "1031",
        "province_id": "10"
      },
      {
        "id": "103103",
        "name": "Bang Khlo",
        "latitude": 13.694,
        "longitude": 100.516,
        "district_id": "1031",
        "province_id": "10"
      },
      {
        "id": "103201",
        "name": "Prawet",
        "latitude": 13.719,
        "longitude": 100.664,
        "district_id": "1032",
        "province_id": "10"
      },
      {
        "id": "103202",
        "name": "Nong Bon",
        "latitude": 13.687,
        "longitude": 100.656,
        "district_id": "1032",
        "province_id": "10"
      },
      {
        "id": "103203",
        "name": "Dok Mai",
        "latitude": 13.68,
        "longitude": 100.689,
        "district_id": "1032",
        "province_id": "10"
      },
      {
        "id": "103301",
        "name": "Khlong Toei",
        "latitude": 13.71,
        "longitude": 100.57,
        "district_id": "1033",
        "province_id": "10"
      },
      {
        "id": "103302",
        "name": "Khlong Ton",
        "latitude": 13.723,
        "longitude": 100.571,
        "district_id": "1033",
        "province_id": "10"
      },
      {
        "id": "103303",
        "name": "Phra Khanong",
        "latitude": 13.707,
        "longitude": 100.595,
        "district_id": "1033",
        "province_id": "10"
      },
      {
        "id": "103401",
        "name": "Suan Luang",
        "latitude": 13.726,
        "longitude": 100.628,
        "district_id": "1034",
        "province_id": "10"
      },
      {
        "id": "103501",
        "name": "Bang Khun Thian",
        "latitude": 13.694,
        "longitude": 100.45,
        "district_id": "1035",
        "province_id": "10"
      },
      {
        "id": "103502",
        "name": "Bang Kho",
        "latitude": 13.702,
        "longitude": 100.476,
        "district_id": "1035",
        "province_id": "10"
      },
      {
        "id": "103503",
        "name": "Bang Mot",
        "latitude": 13.672,
        "longitude": 100.468,
        "district_id": "1035",
        "province_id": "10"
      },
      {
        "id": "103504",
        "name": "Chom Thong",
        "latitude": 13.693,
        "longitude": 100.468,
        "district_id": "1035",
        "province_id": "10"
      },
      {
        "id": "103602",
        "name": "Seekan",
        "latitude": 13.925,
        "longitude": 100.593,
        "district_id": "1036",
        "province_id": "10"
      },
      {
        "id": "103604",
        "name": "Don Mueang",
        "latitude": 13.9124199,
        "longitude": 100.5806794,
        "district_id": "1036",
        "province_id": "10"
      },
      {
        "id": "103605",
        "name": "Sanambin",
        "latitude": 13.9213377,
        "longitude": 100.6054807,
        "district_id": "1036",
        "province_id": "10"
      },
      {
        "id": "103701",
        "name": "Thung Phaya Thai",
        "latitude": 13.763,
        "longitude": 100.53,
        "district_id": "1037",
        "province_id": "10"
      },
      {
        "id": "103702",
        "name": "Thanon Phaya Thai",
        "latitude": 13.757,
        "longitude": 100.538,
        "district_id": "1037",
        "province_id": "10"
      },
      {
        "id": "103703",
        "name": "Thanon Phetchaburi",
        "latitude": 13.752,
        "longitude": 100.559,
        "district_id": "1037",
        "province_id": "10"
      },
      {
        "id": "103704",
        "name": "Makkasan",
        "latitude": 13.752,
        "longitude": 100.528,
        "district_id": "1037",
        "province_id": "10"
      },
      {
        "id": "103801",
        "name": "Lat Phrao",
        "latitude": 13.811,
        "longitude": 100.612,
        "district_id": "1038",
        "province_id": "10"
      },
      {
        "id": "103802",
        "name": "Chorakhe Bua",
        "latitude": 13.84,
        "longitude": 100.6,
        "district_id": "1038",
        "province_id": "10"
      },
      {
        "id": "103901",
        "name": "Khlong Toei Nuea",
        "latitude": 13.743,
        "longitude": 100.56,
        "district_id": "1039",
        "province_id": "10"
      },
      {
        "id": "103902",
        "name": "Khlong Tan Nuea",
        "latitude": 13.736,
        "longitude": 100.576,
        "district_id": "1039",
        "province_id": "10"
      },
      {
        "id": "103903",
        "name": "Phra Khanong Nuea",
        "latitude": 13.719,
        "longitude": 100.596,
        "district_id": "1039",
        "province_id": "10"
      },
      {
        "id": "104001",
        "name": "Bang Khae",
        "latitude": 13.698,
        "longitude": 100.409,
        "district_id": "1040",
        "province_id": "10"
      },
      {
        "id": "104002",
        "name": "Bang Khae Nuea",
        "latitude": 13.72,
        "longitude": 100.4,
        "district_id": "1040",
        "province_id": "10"
      },
      {
        "id": "104003",
        "name": "Bang Pai",
        "latitude": 13.741,
        "longitude": 100.385,
        "district_id": "1040",
        "province_id": "10"
      },
      {
        "id": "104004",
        "name": "Lak Song",
        "latitude": 13.683,
        "longitude": 100.396,
        "district_id": "1040",
        "province_id": "10"
      },
      {
        "id": "104101",
        "name": "Thung Song Hong",
        "latitude": 13.883,
        "longitude": 100.564,
        "district_id": "1041",
        "province_id": "10"
      },
      {
        "id": "104102",
        "name": "Talat Bang Khen",
        "latitude": 13.871,
        "longitude": 100.58,
        "district_id": "1041",
        "province_id": "10"
      },
      {
        "id": "104201",
        "name": "Sai Mai",
        "latitude": 13.921,
        "longitude": 100.654,
        "district_id": "1042",
        "province_id": "10"
      },
      {
        "id": "104202",
        "name": "Ao Ngoen",
        "latitude": 13.896,
        "longitude": 100.672,
        "district_id": "1042",
        "province_id": "10"
      },
      {
        "id": "104203",
        "name": "Khlong Thanon",
        "latitude": 13.898,
        "longitude": 100.63,
        "district_id": "1042",
        "province_id": "10"
      },
      {
        "id": "104301",
        "name": "Khanna Yao",
        "latitude": 13.821,
        "longitude": 100.677,
        "district_id": "1043",
        "province_id": "10"
      },
      {
        "id": "104302",
        "name": "Ram Inthra",
        "latitude": 13.819133,
        "longitude": 100.6655631,
        "district_id": "1043",
        "province_id": "10"
      },
      {
        "id": "104401",
        "name": "Saphan Sung",
        "latitude": 13.761,
        "longitude": 100.688,
        "district_id": "1044",
        "province_id": "10"
      },
      {
        "id": "104501",
        "name": "Wang Thonglang",
        "latitude": 13.779,
        "longitude": 100.609,
        "district_id": "1045",
        "province_id": "10"
      },
      {
        "id": "104502",
        "name": "Saphansong",
        "latitude": 13.7945453,
        "longitude": 100.6006523,
        "district_id": "1045",
        "province_id": "10"
      },
      {
        "id": "104503",
        "name": "Chao Khun Sing",
        "latitude": 13.7761027,
        "longitude": 100.6135913,
        "district_id": "1045",
        "province_id": "10"
      },
      {
        "id": "104504",
        "name": "Phlabphla",
        "latitude": 13.7686178,
        "longitude": 100.6135517,
        "district_id": "1045",
        "province_id": "10"
      },
      {
        "id": "104601",
        "name": "Sam Wa Tawantok",
        "latitude": 13.889,
        "longitude": 100.708,
        "district_id": "1046",
        "province_id": "10"
      },
      {
        "id": "104602",
        "name": "Sam Wa Tawan Ok",
        "latitude": 13.896,
        "longitude": 100.76,
        "district_id": "1046",
        "province_id": "10"
      },
      {
        "id": "104603",
        "name": "Bang Chan",
        "latitude": 13.839,
        "longitude": 100.7,
        "district_id": "1046",
        "province_id": "10"
      },
      {
        "id": "104604",
        "name": "Sai Kong Din",
        "latitude": 13.854,
        "longitude": 100.745,
        "district_id": "1046",
        "province_id": "10"
      },
      {
        "id": "104605",
        "name": "Sai Kong Din Tai",
        "latitude": 13.861,
        "longitude": 100.786,
        "district_id": "1046",
        "province_id": "10"
      },
      {
        "id": "104701",
        "name": "Bang Na",
        "latitude": 13.672,
        "longitude": 100.616,
        "district_id": "1047",
        "province_id": "10"
      },
      {
        "id": "104801",
        "name": "Thawi Watthana",
        "latitude": 13.758,
        "longitude": 100.348,
        "district_id": "1048",
        "province_id": "10"
      },
      {
        "id": "104802",
        "name": "Sala Thammasop",
        "latitude": 13.783,
        "longitude": 100.39,
        "district_id": "1048",
        "province_id": "10"
      },
      {
        "id": "104901",
        "name": "Bang Mot",
        "latitude": 13.651,
        "longitude": 100.51,
        "district_id": "1049",
        "province_id": "10"
      },
      {
        "id": "104902",
        "name": "Thung Khru",
        "latitude": 13.614,
        "longitude": 100.497,
        "district_id": "1049",
        "province_id": "10"
      },
      {
        "id": "105001",
        "name": "Bang Bon",
        "latitude": 13.646,
        "longitude": 100.37,
        "district_id": "1050",
        "province_id": "10"
      },
      {
        "id": "110101",
        "name": "Thetsaban Nakhon Samut Prakan",
        "latitude": 13.593,
        "longitude": 100.597,
        "district_id": "1101",
        "province_id": "11"
      },
      {
        "id": "110102",
        "name": "Sam Rong Nua",
        "latitude": 13.649,
        "longitude": 100.617,
        "district_id": "1101",
        "province_id": "11"
      },
      {
        "id": "110103",
        "name": "Bang Muang",
        "latitude": 13.601,
        "longitude": 100.622,
        "district_id": "1101",
        "province_id": "11"
      },
      {
        "id": "110104",
        "name": "Thai Ban",
        "latitude": 13.556,
        "longitude": 100.599,
        "district_id": "1101",
        "province_id": "11"
      },
      {
        "id": "110105",
        "name": "Thai Ban Mai",
        "latitude": 13.572,
        "longitude": 100.621,
        "district_id": "1101",
        "province_id": "11"
      },
      {
        "id": "110108",
        "name": "Bang Pu Mai",
        "latitude": 13.526,
        "longitude": 100.67,
        "district_id": "1101",
        "province_id": "11"
      },
      {
        "id": "110110",
        "name": "Phraeksa",
        "latitude": 13.564,
        "longitude": 100.653,
        "district_id": "1101",
        "province_id": "11"
      },
      {
        "id": "110111",
        "name": "Bang Prong",
        "latitude": 13.623,
        "longitude": 100.565,
        "district_id": "1101",
        "province_id": "11"
      },
      {
        "id": "110112",
        "name": "Bang Pu",
        "latitude": 13.51,
        "longitude": 100.751,
        "district_id": "1101",
        "province_id": "11"
      },
      {
        "id": "110113",
        "name": "Bang Duan",
        "latitude": 13.622,
        "longitude": 100.581,
        "district_id": "1101",
        "province_id": "11"
      },
      {
        "id": "110114",
        "name": "Bang Mueang Mai",
        "latitude": 13.622,
        "longitude": 100.605,
        "district_id": "1101",
        "province_id": "11"
      },
      {
        "id": "110115",
        "name": "Thepharak",
        "latitude": 13.634,
        "longitude": 100.61,
        "district_id": "1101",
        "province_id": "11"
      },
      {
        "id": "110117",
        "name": "Phraeksa Mai",
        "latitude": 13.559,
        "longitude": 100.691,
        "district_id": "1101",
        "province_id": "11"
      },
      {
        "id": "110201",
        "name": "Bang Bo",
        "latitude": 13.611,
        "longitude": 100.862,
        "district_id": "1102",
        "province_id": "11"
      },
      {
        "id": "110202",
        "name": "Ban Rakat",
        "latitude": 13.639,
        "longitude": 100.904,
        "district_id": "1102",
        "province_id": "11"
      },
      {
        "id": "110203",
        "name": "Bang Phli Noi",
        "latitude": 13.574,
        "longitude": 100.9,
        "district_id": "1102",
        "province_id": "11"
      },
      {
        "id": "110204",
        "name": "Bang Phriang",
        "latitude": 13.545,
        "longitude": 100.805,
        "district_id": "1102",
        "province_id": "11"
      },
      {
        "id": "110205",
        "name": "Khlong Dan",
        "latitude": 13.511,
        "longitude": 100.835,
        "district_id": "1102",
        "province_id": "11"
      },
      {
        "id": "110206",
        "name": "Khlong Suan",
        "latitude": 13.659,
        "longitude": 100.925,
        "district_id": "1102",
        "province_id": "11"
      },
      {
        "id": "110207",
        "name": "Preng",
        "latitude": 13.672,
        "longitude": 100.881,
        "district_id": "1102",
        "province_id": "11"
      },
      {
        "id": "110208",
        "name": "Khlong Niyom Yatra",
        "latitude": 13.624,
        "longitude": 100.935,
        "district_id": "1102",
        "province_id": "11"
      },
      {
        "id": "110301",
        "name": "Bang Phli Yai",
        "latitude": 13.618,
        "longitude": 100.694,
        "district_id": "1103",
        "province_id": "11"
      },
      {
        "id": "110302",
        "name": "Bang Kaeo",
        "latitude": 13.642,
        "longitude": 100.662,
        "district_id": "1103",
        "province_id": "11"
      },
      {
        "id": "110303",
        "name": "Bang Pla",
        "latitude": 13.561,
        "longitude": 100.739,
        "district_id": "1103",
        "province_id": "11"
      },
      {
        "id": "110304",
        "name": "Bang Chalong",
        "latitude": 13.623,
        "longitude": 100.755,
        "district_id": "1103",
        "province_id": "11"
      },
      {
        "id": "110308",
        "name": "Racha Thewa",
        "latitude": 13.681,
        "longitude": 100.733,
        "district_id": "1103",
        "province_id": "11"
      },
      {
        "id": "110309",
        "name": "Nong Prue",
        "latitude": 13.678,
        "longitude": 100.75,
        "district_id": "1103",
        "province_id": "11"
      },
      {
        "id": "110401",
        "name": "Talat",
        "latitude": 13.656,
        "longitude": 100.533,
        "district_id": "1104",
        "province_id": "11"
      },
      {
        "id": "110402",
        "name": "Bang Phueng",
        "latitude": 13.671,
        "longitude": 100.52,
        "district_id": "1104",
        "province_id": "11"
      },
      {
        "id": "110403",
        "name": "Bang Chak",
        "latitude": 13.616,
        "longitude": 100.536,
        "district_id": "1104",
        "province_id": "11"
      },
      {
        "id": "110404",
        "name": "Bang Khru",
        "latitude": 13.631,
        "longitude": 100.526,
        "district_id": "1104",
        "province_id": "11"
      },
      {
        "id": "110405",
        "name": "Bang Ya Phraek",
        "latitude": 13.645,
        "longitude": 100.546,
        "district_id": "1104",
        "province_id": "11"
      },
      {
        "id": "110406",
        "name": "Bang Hua Suea",
        "latitude": 13.625,
        "longitude": 100.549,
        "district_id": "1104",
        "province_id": "11"
      },
      {
        "id": "110407",
        "name": "Samrong Tai",
        "latitude": 13.641,
        "longitude": 100.573,
        "district_id": "1104",
        "province_id": "11"
      },
      {
        "id": "110408",
        "name": "Bang Yo",
        "latitude": 13.679,
        "longitude": 100.558,
        "district_id": "1104",
        "province_id": "11"
      },
      {
        "id": "110409",
        "name": "Bang Kachao",
        "latitude": 13.697,
        "longitude": 100.561,
        "district_id": "1104",
        "province_id": "11"
      },
      {
        "id": "110410",
        "name": "Bang Nam Phueng",
        "latitude": 13.679,
        "longitude": 100.578,
        "district_id": "1104",
        "province_id": "11"
      },
      {
        "id": "110411",
        "name": "Bang Krasop",
        "latitude": 13.666,
        "longitude": 100.566,
        "district_id": "1104",
        "province_id": "11"
      },
      {
        "id": "110412",
        "name": "Bang Ko Bua",
        "latitude": 13.693,
        "longitude": 100.577,
        "district_id": "1104",
        "province_id": "11"
      },
      {
        "id": "110413",
        "name": "Song Khanong",
        "latitude": 13.665,
        "longitude": 100.545,
        "district_id": "1104",
        "province_id": "11"
      },
      {
        "id": "110414",
        "name": "Samrong",
        "latitude": 13.659,
        "longitude": 100.584,
        "district_id": "1104",
        "province_id": "11"
      },
      {
        "id": "110415",
        "name": "Samrong Klang",
        "latitude": 13.653,
        "longitude": 100.564,
        "district_id": "1104",
        "province_id": "11"
      },
      {
        "id": "110501",
        "name": "Na Kluea",
        "latitude": 13.53,
        "longitude": 100.494,
        "district_id": "1105",
        "province_id": "11"
      },
      {
        "id": "110502",
        "name": "Ban Khlong Suan",
        "latitude": 13.571,
        "longitude": 100.476,
        "district_id": "1105",
        "province_id": "11"
      },
      {
        "id": "110503",
        "name": "Laem Fa Pha",
        "latitude": 13.539,
        "longitude": 100.559,
        "district_id": "1105",
        "province_id": "11"
      },
      {
        "id": "110504",
        "name": "Pak Khlong Bang Pla Kot",
        "latitude": 13.606,
        "longitude": 100.567,
        "district_id": "1105",
        "province_id": "11"
      },
      {
        "id": "110505",
        "name": "Nai Khlong Bang Pla Kot",
        "latitude": 13.588,
        "longitude": 100.541,
        "district_id": "1105",
        "province_id": "11"
      },
      {
        "id": "110601",
        "name": "Bang Sao Thong",
        "latitude": 13.6,
        "longitude": 100.815,
        "district_id": "1106",
        "province_id": "11"
      },
      {
        "id": "110602",
        "name": "Sisa Chorakhe Noi",
        "latitude": 13.689,
        "longitude": 100.799,
        "district_id": "1106",
        "province_id": "11"
      },
      {
        "id": "110603",
        "name": "Sisa Chorakhe Yai",
        "latitude": 13.641,
        "longitude": 100.803,
        "district_id": "1106",
        "province_id": "11"
      },
      {
        "id": "120101",
        "name": "Suan Yai",
        "latitude": 13.842,
        "longitude": 100.494,
        "district_id": "1201",
        "province_id": "12"
      },
      {
        "id": "120102",
        "name": "Talat Khwan",
        "latitude": 13.85,
        "longitude": 100.509,
        "district_id": "1201",
        "province_id": "12"
      },
      {
        "id": "120103",
        "name": "Bang Khen",
        "latitude": 13.835,
        "longitude": 100.516,
        "district_id": "1201",
        "province_id": "12"
      },
      {
        "id": "120104",
        "name": "Bang Kraso",
        "latitude": 13.869,
        "longitude": 100.491,
        "district_id": "1201",
        "province_id": "12"
      },
      {
        "id": "120105",
        "name": "Tha Sai",
        "latitude": 13.884,
        "longitude": 100.501,
        "district_id": "1201",
        "province_id": "12"
      },
      {
        "id": "120106",
        "name": "Bang Phai",
        "latitude": 13.823,
        "longitude": 100.492,
        "district_id": "1201",
        "province_id": "12"
      },
      {
        "id": "120107",
        "name": "Bang Si Mueang",
        "latitude": 13.841,
        "longitude": 100.475,
        "district_id": "1201",
        "province_id": "12"
      },
      {
        "id": "120108",
        "name": "Bang Krang",
        "latitude": 13.835,
        "longitude": 100.438,
        "district_id": "1201",
        "province_id": "12"
      },
      {
        "id": "120109",
        "name": "Sai Ma",
        "latitude": 13.87,
        "longitude": 100.472,
        "district_id": "1201",
        "province_id": "12"
      },
      {
        "id": "120110",
        "name": "Bang Rak Noi",
        "latitude": 13.859,
        "longitude": 100.464,
        "district_id": "1201",
        "province_id": "12"
      },
      {
        "id": "120201",
        "name": "Wat Chalo",
        "latitude": 13.802,
        "longitude": 100.476,
        "district_id": "1202",
        "province_id": "12"
      },
      {
        "id": "120202",
        "name": "Bang Kruai",
        "latitude": 13.809,
        "longitude": 100.499,
        "district_id": "1202",
        "province_id": "12"
      },
      {
        "id": "120203",
        "name": "Bang Si Thong",
        "latitude": 13.818,
        "longitude": 100.479,
        "district_id": "1202",
        "province_id": "12"
      },
      {
        "id": "120204",
        "name": "Bang Khanun",
        "latitude": 13.811,
        "longitude": 100.453,
        "district_id": "1202",
        "province_id": "12"
      },
      {
        "id": "120205",
        "name": "Bang Khun Kong",
        "latitude": 13.821,
        "longitude": 100.444,
        "district_id": "1202",
        "province_id": "12"
      },
      {
        "id": "120206",
        "name": "Bang Khu Wiang",
        "latitude": 13.822,
        "longitude": 100.417,
        "district_id": "1202",
        "province_id": "12"
      },
      {
        "id": "120207",
        "name": "Mahasawat",
        "latitude": 13.806,
        "longitude": 100.434,
        "district_id": "1202",
        "province_id": "12"
      },
      {
        "id": "120208",
        "name": "Plai Bang",
        "latitude": 13.814,
        "longitude": 100.402,
        "district_id": "1202",
        "province_id": "12"
      },
      {
        "id": "120209",
        "name": "Sala Klang",
        "latitude": 13.81,
        "longitude": 100.358,
        "district_id": "1202",
        "province_id": "12"
      },
      {
        "id": "120301",
        "name": "Bang Muang",
        "latitude": 13.838,
        "longitude": 100.406,
        "district_id": "1203",
        "province_id": "12"
      },
      {
        "id": "120302",
        "name": "Bang Mae Nang",
        "latitude": 13.868,
        "longitude": 100.381,
        "district_id": "1203",
        "province_id": "12"
      },
      {
        "id": "120303",
        "name": "Bang Len",
        "latitude": 13.854,
        "longitude": 100.434,
        "district_id": "1203",
        "province_id": "12"
      },
      {
        "id": "120304",
        "name": "Sao Thong Hin",
        "latitude": 13.875,
        "longitude": 100.404,
        "district_id": "1203",
        "province_id": "12"
      },
      {
        "id": "120305",
        "name": "Bang Yai",
        "latitude": 13.837,
        "longitude": 100.375,
        "district_id": "1203",
        "province_id": "12"
      },
      {
        "id": "120306",
        "name": "Ban Mai",
        "latitude": 13.861,
        "longitude": 100.333,
        "district_id": "1203",
        "province_id": "12"
      },
      {
        "id": "120401",
        "name": "Sano Loi",
        "latitude": 13.914,
        "longitude": 100.422,
        "district_id": "1204",
        "province_id": "12"
      },
      {
        "id": "120402",
        "name": "Bang Bua Thong",
        "latitude": 13.944,
        "longitude": 100.39,
        "district_id": "1204",
        "province_id": "12"
      },
      {
        "id": "120403",
        "name": "Bang Rak Yai",
        "latitude": 13.878,
        "longitude": 100.438,
        "district_id": "1204",
        "province_id": "12"
      },
      {
        "id": "120404",
        "name": "Bang Khu Rat",
        "latitude": 13.907,
        "longitude": 100.351,
        "district_id": "1204",
        "province_id": "12"
      },
      {
        "id": "120405",
        "name": "Lahan",
        "latitude": 13.964,
        "longitude": 100.401,
        "district_id": "1204",
        "province_id": "12"
      },
      {
        "id": "120406",
        "name": "Lam Pho",
        "latitude": 13.97,
        "longitude": 100.416,
        "district_id": "1204",
        "province_id": "12"
      },
      {
        "id": "120407",
        "name": "Phimonrat",
        "latitude": 13.934,
        "longitude": 100.366,
        "district_id": "1204",
        "province_id": "12"
      },
      {
        "id": "120408",
        "name": "Bang Rak Phatthana",
        "latitude": 13.894,
        "longitude": 100.41,
        "district_id": "1204",
        "province_id": "12"
      },
      {
        "id": "120501",
        "name": "Sai Noi",
        "latitude": 13.976,
        "longitude": 100.344,
        "district_id": "1205",
        "province_id": "12"
      },
      {
        "id": "120502",
        "name": "Rat Niyom",
        "latitude": 14.088,
        "longitude": 100.329,
        "district_id": "1205",
        "province_id": "12"
      },
      {
        "id": "120503",
        "name": "Nong Phrao Ngai",
        "latitude": 13.906,
        "longitude": 100.322,
        "district_id": "1205",
        "province_id": "12"
      },
      {
        "id": "120504",
        "name": "Sai Yai",
        "latitude": 14.085,
        "longitude": 100.292,
        "district_id": "1205",
        "province_id": "12"
      },
      {
        "id": "120505",
        "name": "Khun Si",
        "latitude": 14.005,
        "longitude": 100.287,
        "district_id": "1205",
        "province_id": "12"
      },
      {
        "id": "120506",
        "name": "Khlong Khwang",
        "latitude": 14.004,
        "longitude": 100.306,
        "district_id": "1205",
        "province_id": "12"
      },
      {
        "id": "120507",
        "name": "Thawi Watthana",
        "latitude": 13.942,
        "longitude": 100.312,
        "district_id": "1205",
        "province_id": "12"
      },
      {
        "id": "120601",
        "name": "Pak Kret",
        "latitude": 13.912,
        "longitude": 100.506,
        "district_id": "1206",
        "province_id": "12"
      },
      {
        "id": "120602",
        "name": "Bang Talat",
        "latitude": 13.896,
        "longitude": 100.521,
        "district_id": "1206",
        "province_id": "12"
      },
      {
        "id": "120603",
        "name": "Ban Mai",
        "latitude": 13.93,
        "longitude": 100.546,
        "district_id": "1206",
        "province_id": "12"
      },
      {
        "id": "120604",
        "name": "Bang Phut",
        "latitude": 13.927,
        "longitude": 100.516,
        "district_id": "1206",
        "province_id": "12"
      },
      {
        "id": "120605",
        "name": "Bang Tanai",
        "latitude": 13.931,
        "longitude": 100.492,
        "district_id": "1206",
        "province_id": "12"
      },
      {
        "id": "120606",
        "name": "Khlong Phra Udom",
        "latitude": 13.93,
        "longitude": 100.479,
        "district_id": "1206",
        "province_id": "12"
      },
      {
        "id": "120607",
        "name": "Tha It",
        "latitude": 13.894,
        "longitude": 100.48,
        "district_id": "1206",
        "province_id": "12"
      },
      {
        "id": "120608",
        "name": "Ko Kret",
        "latitude": 13.91,
        "longitude": 100.472,
        "district_id": "1206",
        "province_id": "12"
      },
      {
        "id": "120609",
        "name": "Om Kret",
        "latitude": 13.909,
        "longitude": 100.453,
        "district_id": "1206",
        "province_id": "12"
      },
      {
        "id": "120610",
        "name": "Khlong Khoi",
        "latitude": 13.959,
        "longitude": 100.45,
        "district_id": "1206",
        "province_id": "12"
      },
      {
        "id": "120611",
        "name": "Bang Phlap",
        "latitude": 13.929,
        "longitude": 100.458,
        "district_id": "1206",
        "province_id": "12"
      },
      {
        "id": "120612",
        "name": "Khlong Kluea",
        "latitude": 13.902,
        "longitude": 100.55,
        "district_id": "1206",
        "province_id": "12"
      },
      {
        "id": "130101",
        "name": "Bang Prok",
        "latitude": 14.012,
        "longitude": 100.528,
        "district_id": "1301",
        "province_id": "13"
      },
      {
        "id": "130102",
        "name": "Ban Mai",
        "latitude": 13.963,
        "longitude": 100.553,
        "district_id": "1301",
        "province_id": "13"
      },
      {
        "id": "130103",
        "name": "Ban Klang",
        "latitude": 14.001,
        "longitude": 100.558,
        "district_id": "1301",
        "province_id": "13"
      },
      {
        "id": "130104",
        "name": "Ban Chang",
        "latitude": 14.029,
        "longitude": 100.507,
        "district_id": "1301",
        "province_id": "13"
      },
      {
        "id": "130105",
        "name": "Ban Krachaeng",
        "latitude": 14.031,
        "longitude": 100.552,
        "district_id": "1301",
        "province_id": "13"
      },
      {
        "id": "130106",
        "name": "Bang Khayaeng",
        "latitude": 13.967,
        "longitude": 100.523,
        "district_id": "1301",
        "province_id": "13"
      },
      {
        "id": "130107",
        "name": "Bang Khu Wat",
        "latitude": 13.963,
        "longitude": 100.495,
        "district_id": "1301",
        "province_id": "13"
      },
      {
        "id": "130108",
        "name": "Bang Luang",
        "latitude": 14.007,
        "longitude": 100.509,
        "district_id": "1301",
        "province_id": "13"
      },
      {
        "id": "130109",
        "name": "Bang Duea",
        "latitude": 13.99,
        "longitude": 100.487,
        "district_id": "1301",
        "province_id": "13"
      },
      {
        "id": "130110",
        "name": "Bang Phut",
        "latitude": 14.035,
        "longitude": 100.572,
        "district_id": "1301",
        "province_id": "13"
      },
      {
        "id": "130111",
        "name": "Bang Phun",
        "latitude": 13.988,
        "longitude": 100.594,
        "district_id": "1301",
        "province_id": "13"
      },
      {
        "id": "130112",
        "name": "Bang Kadi",
        "latitude": 13.983,
        "longitude": 100.537,
        "district_id": "1301",
        "province_id": "13"
      },
      {
        "id": "130113",
        "name": "Suan Phrik Thai",
        "latitude": 14.018,
        "longitude": 100.568,
        "district_id": "1301",
        "province_id": "13"
      },
      {
        "id": "130114",
        "name": "Lak Hok",
        "latitude": 13.963,
        "longitude": 100.59,
        "district_id": "1301",
        "province_id": "13"
      },
      {
        "id": "130201",
        "name": "Khlong Nueng",
        "latitude": 14.066,
        "longitude": 100.607,
        "district_id": "1302",
        "province_id": "13"
      },
      {
        "id": "130202",
        "name": "Khlong Song",
        "latitude": 14.079,
        "longitude": 100.642,
        "district_id": "1302",
        "province_id": "13"
      },
      {
        "id": "130203",
        "name": "Khlong Sam",
        "latitude": 14.087,
        "longitude": 100.664,
        "district_id": "1302",
        "province_id": "13"
      },
      {
        "id": "130204",
        "name": "Khlong Si",
        "latitude": 14.097,
        "longitude": 100.687,
        "district_id": "1302",
        "province_id": "13"
      },
      {
        "id": "130205",
        "name": "Khlong Ha",
        "latitude": 14.106,
        "longitude": 100.71,
        "district_id": "1302",
        "province_id": "13"
      },
      {
        "id": "130206",
        "name": "Khlong Hok",
        "latitude": 14.117,
        "longitude": 100.733,
        "district_id": "1302",
        "province_id": "13"
      },
      {
        "id": "130207",
        "name": "Khlong Chet",
        "latitude": 14.125,
        "longitude": 100.75,
        "district_id": "1302",
        "province_id": "13"
      },
      {
        "id": "130301",
        "name": "Pracha Thipat",
        "latitude": 13.987,
        "longitude": 100.632,
        "district_id": "1303",
        "province_id": "13"
      },
      {
        "id": "130302",
        "name": "Bueng Yitho",
        "latitude": 13.999,
        "longitude": 100.687,
        "district_id": "1303",
        "province_id": "13"
      },
      {
        "id": "130303",
        "name": "Rangsit",
        "latitude": 14.018,
        "longitude": 100.731,
        "district_id": "1303",
        "province_id": "13"
      },
      {
        "id": "130304",
        "name": "Lam Phak Kut",
        "latitude": 14.036,
        "longitude": 100.779,
        "district_id": "1303",
        "province_id": "13"
      },
      {
        "id": "130305",
        "name": "Bueng Sanan",
        "latitude": 14.052,
        "longitude": 100.824,
        "district_id": "1303",
        "province_id": "13"
      },
      {
        "id": "130306",
        "name": "Bueng Nam Rak",
        "latitude": 14.071,
        "longitude": 100.88,
        "district_id": "1303",
        "province_id": "13"
      },
      {
        "id": "130401",
        "name": "Bueng Ba",
        "latitude": 14.112,
        "longitude": 100.824,
        "district_id": "1304",
        "province_id": "13"
      },
      {
        "id": "130402",
        "name": "Bueng Bon",
        "latitude": 14.087,
        "longitude": 100.778,
        "district_id": "1304",
        "province_id": "13"
      },
      {
        "id": "130403",
        "name": "Bueng Ka Sam",
        "latitude": 14.2,
        "longitude": 100.824,
        "district_id": "1304",
        "province_id": "13"
      },
      {
        "id": "130404",
        "name": "Bueng Cham O",
        "latitude": 14.172,
        "longitude": 100.778,
        "district_id": "1304",
        "province_id": "13"
      },
      {
        "id": "130405",
        "name": "Nong Sam Wang",
        "latitude": 14.13,
        "longitude": 100.881,
        "district_id": "1304",
        "province_id": "13"
      },
      {
        "id": "130406",
        "name": "Sala Khru",
        "latitude": 14.244,
        "longitude": 100.928,
        "district_id": "1304",
        "province_id": "13"
      },
      {
        "id": "130407",
        "name": "Noppharat",
        "latitude": 14.223,
        "longitude": 100.866,
        "district_id": "1304",
        "province_id": "13"
      },
      {
        "id": "130501",
        "name": "Rahaeng",
        "latitude": 14.059,
        "longitude": 100.396,
        "district_id": "1305",
        "province_id": "13"
      },
      {
        "id": "130502",
        "name": "Lat Lum Kaeo",
        "latitude": 14.006,
        "longitude": 100.41,
        "district_id": "1305",
        "province_id": "13"
      },
      {
        "id": "130503",
        "name": "Khu Bang Luang",
        "latitude": 14.047,
        "longitude": 100.467,
        "district_id": "1305",
        "province_id": "13"
      },
      {
        "id": "130504",
        "name": "Khu Khwang",
        "latitude": 14.068,
        "longitude": 100.437,
        "district_id": "1305",
        "province_id": "13"
      },
      {
        "id": "130505",
        "name": "Khlong Phra Udom",
        "latitude": 13.99,
        "longitude": 100.449,
        "district_id": "1305",
        "province_id": "13"
      },
      {
        "id": "130506",
        "name": "Bo Ngoen",
        "latitude": 14.102,
        "longitude": 100.383,
        "district_id": "1305",
        "province_id": "13"
      },
      {
        "id": "130507",
        "name": "Na Mai",
        "latitude": 14.034,
        "longitude": 100.359,
        "district_id": "1305",
        "province_id": "13"
      },
      {
        "id": "130601",
        "name": "Khu Khot",
        "latitude": 13.955,
        "longitude": 100.641,
        "district_id": "1306",
        "province_id": "13"
      },
      {
        "id": "130602",
        "name": "Lat Sawai",
        "latitude": 13.958,
        "longitude": 100.685,
        "district_id": "1306",
        "province_id": "13"
      },
      {
        "id": "130603",
        "name": "Bueng Kham Phoi",
        "latitude": 13.961,
        "longitude": 100.731,
        "district_id": "1306",
        "province_id": "13"
      },
      {
        "id": "130604",
        "name": "Lam Luk Ka",
        "latitude": 13.972,
        "longitude": 100.774,
        "district_id": "1306",
        "province_id": "13"
      },
      {
        "id": "130605",
        "name": "Bueng Thong Lang",
        "latitude": 13.984,
        "longitude": 100.82,
        "district_id": "1306",
        "province_id": "13"
      },
      {
        "id": "130606",
        "name": "Lam Sai",
        "latitude": 13.973,
        "longitude": 100.861,
        "district_id": "1306",
        "province_id": "13"
      },
      {
        "id": "130607",
        "name": "Bueng Kho Hai",
        "latitude": 14.029,
        "longitude": 100.862,
        "district_id": "1306",
        "province_id": "13"
      },
      {
        "id": "130608",
        "name": "Phuet Udom",
        "latitude": 13.975,
        "longitude": 100.896,
        "district_id": "1306",
        "province_id": "13"
      },
      {
        "id": "130701",
        "name": "Bang Toei",
        "latitude": 14.062,
        "longitude": 100.504,
        "district_id": "1307",
        "province_id": "13"
      },
      {
        "id": "130702",
        "name": "Khlong Khwai",
        "latitude": 14.097,
        "longitude": 100.478,
        "district_id": "1307",
        "province_id": "13"
      },
      {
        "id": "130703",
        "name": "Sam Khok",
        "latitude": 14.052,
        "longitude": 100.529,
        "district_id": "1307",
        "province_id": "13"
      },
      {
        "id": "130704",
        "name": "Krachaeng",
        "latitude": 14.043,
        "longitude": 100.544,
        "district_id": "1307",
        "province_id": "13"
      },
      {
        "id": "130705",
        "name": "Bang Pho Nuea",
        "latitude": 14.042,
        "longitude": 100.515,
        "district_id": "1307",
        "province_id": "13"
      },
      {
        "id": "130706",
        "name": "Chiang Rak Yai",
        "latitude": 14.057,
        "longitude": 100.574,
        "district_id": "1307",
        "province_id": "13"
      },
      {
        "id": "130707",
        "name": "Ban Pathum",
        "latitude": 14.067,
        "longitude": 100.546,
        "district_id": "1307",
        "province_id": "13"
      },
      {
        "id": "130708",
        "name": "Ban Ngio",
        "latitude": 14.084,
        "longitude": 100.539,
        "district_id": "1307",
        "province_id": "13"
      },
      {
        "id": "130709",
        "name": "Chiang Rak Noi",
        "latitude": 14.105,
        "longitude": 100.567,
        "district_id": "1307",
        "province_id": "13"
      },
      {
        "id": "130710",
        "name": "Bang Krabue",
        "latitude": 14.103,
        "longitude": 100.538,
        "district_id": "1307",
        "province_id": "13"
      },
      {
        "id": "130711",
        "name": "Thai Ko",
        "latitude": 14.105,
        "longitude": 100.496,
        "district_id": "1307",
        "province_id": "13"
      },
      {
        "id": "140101",
        "name": "Pratu Chai",
        "latitude": 14.349,
        "longitude": 100.551,
        "district_id": "1401",
        "province_id": "14"
      },
      {
        "id": "140102",
        "name": "Kamang",
        "latitude": 14.341,
        "longitude": 100.581,
        "district_id": "1401",
        "province_id": "14"
      },
      {
        "id": "140103",
        "name": "Ho Rattana Chai",
        "latitude": 14.354,
        "longitude": 100.578,
        "district_id": "1401",
        "province_id": "14"
      },
      {
        "id": "140104",
        "name": "Hua Ro",
        "latitude": 14.368,
        "longitude": 100.578,
        "district_id": "1401",
        "province_id": "14"
      },
      {
        "id": "140105",
        "name": "Tha Wasukri",
        "latitude": 14.361,
        "longitude": 100.552,
        "district_id": "1401",
        "province_id": "14"
      },
      {
        "id": "140106",
        "name": "Phai Ling",
        "latitude": 14.356,
        "longitude": 100.589,
        "district_id": "1401",
        "province_id": "14"
      },
      {
        "id": "140107",
        "name": "Pak Kran",
        "latitude": 14.31,
        "longitude": 100.532,
        "district_id": "1401",
        "province_id": "14"
      },
      {
        "id": "140108",
        "name": "Phu Khao Thong",
        "latitude": 14.365,
        "longitude": 100.542,
        "district_id": "1401",
        "province_id": "14"
      },
      {
        "id": "140109",
        "name": "Samphao Lom",
        "latitude": 14.34,
        "longitude": 100.57,
        "district_id": "1401",
        "province_id": "14"
      },
      {
        "id": "140110",
        "name": "Suan Phrik",
        "latitude": 14.391,
        "longitude": 100.558,
        "district_id": "1401",
        "province_id": "14"
      },
      {
        "id": "140111",
        "name": "Khlong Takhian",
        "latitude": 14.331,
        "longitude": 100.554,
        "district_id": "1401",
        "province_id": "14"
      },
      {
        "id": "140112",
        "name": "Wat Tum",
        "latitude": 14.39,
        "longitude": 100.539,
        "district_id": "1401",
        "province_id": "14"
      },
      {
        "id": "140113",
        "name": "Han Tra",
        "latitude": 14.371,
        "longitude": 100.6,
        "district_id": "1401",
        "province_id": "14"
      },
      {
        "id": "140114",
        "name": "Lumphli",
        "latitude": 14.376,
        "longitude": 100.548,
        "district_id": "1401",
        "province_id": "14"
      },
      {
        "id": "140115",
        "name": "Ban Mai",
        "latitude": 14.39,
        "longitude": 100.521,
        "district_id": "1401",
        "province_id": "14"
      },
      {
        "id": "140116",
        "name": "Ban Ko",
        "latitude": 14.389,
        "longitude": 100.582,
        "district_id": "1401",
        "province_id": "14"
      },
      {
        "id": "140117",
        "name": "Khlong Suan Phu",
        "latitude": 14.334,
        "longitude": 100.595,
        "district_id": "1401",
        "province_id": "14"
      },
      {
        "id": "140118",
        "name": "Khlong Sa Bua",
        "latitude": 14.371,
        "longitude": 100.563,
        "district_id": "1401",
        "province_id": "14"
      },
      {
        "id": "140119",
        "name": "Ko Rian",
        "latitude": 14.318,
        "longitude": 100.579,
        "district_id": "1401",
        "province_id": "14"
      },
      {
        "id": "140120",
        "name": "Ban Pom",
        "latitude": 14.347,
        "longitude": 100.529,
        "district_id": "1401",
        "province_id": "14"
      },
      {
        "id": "140121",
        "name": "Ban Run",
        "latitude": 14.312,
        "longitude": 100.559,
        "district_id": "1401",
        "province_id": "14"
      },
      {
        "id": "140201",
        "name": "Tha Ruea",
        "latitude": 14.566,
        "longitude": 100.719,
        "district_id": "1402",
        "province_id": "14"
      },
      {
        "id": "140202",
        "name": "Champa",
        "latitude": 14.55,
        "longitude": 100.741,
        "district_id": "1402",
        "province_id": "14"
      },
      {
        "id": "140203",
        "name": "Tha Luang",
        "latitude": 14.548,
        "longitude": 100.764,
        "district_id": "1402",
        "province_id": "14"
      },
      {
        "id": "140204",
        "name": "Ban Rom",
        "latitude": 14.567,
        "longitude": 100.698,
        "district_id": "1402",
        "province_id": "14"
      },
      {
        "id": "140205",
        "name": "Sala Loi",
        "latitude": 14.532,
        "longitude": 100.7,
        "district_id": "1402",
        "province_id": "14"
      },
      {
        "id": "140206",
        "name": "Wang Daeng",
        "latitude": 14.541,
        "longitude": 100.67,
        "district_id": "1402",
        "province_id": "14"
      },
      {
        "id": "140207",
        "name": "Pho En",
        "latitude": 14.519,
        "longitude": 100.676,
        "district_id": "1402",
        "province_id": "14"
      },
      {
        "id": "140208",
        "name": "Pak Tha",
        "latitude": 14.504,
        "longitude": 100.692,
        "district_id": "1402",
        "province_id": "14"
      },
      {
        "id": "140209",
        "name": "Nong Khanak",
        "latitude": 14.512,
        "longitude": 100.732,
        "district_id": "1402",
        "province_id": "14"
      },
      {
        "id": "140210",
        "name": "Tha Chao Sanuk",
        "latitude": 14.543,
        "longitude": 100.717,
        "district_id": "1402",
        "province_id": "14"
      },
      {
        "id": "140301",
        "name": "Nakhon Luang",
        "latitude": 14.469,
        "longitude": 100.622,
        "district_id": "1403",
        "province_id": "14"
      },
      {
        "id": "140302",
        "name": "Tha Chang",
        "latitude": 14.511,
        "longitude": 100.652,
        "district_id": "1403",
        "province_id": "14"
      },
      {
        "id": "140303",
        "name": "Bo Phong",
        "latitude": 14.406,
        "longitude": 100.603,
        "district_id": "1403",
        "province_id": "14"
      },
      {
        "id": "140304",
        "name": "Ban Chung",
        "latitude": 14.458,
        "longitude": 100.655,
        "district_id": "1403",
        "province_id": "14"
      },
      {
        "id": "140305",
        "name": "Pak Chan",
        "latitude": 14.44,
        "longitude": 100.62,
        "district_id": "1403",
        "province_id": "14"
      },
      {
        "id": "140306",
        "name": "Bang Rakam",
        "latitude": 14.466,
        "longitude": 100.589,
        "district_id": "1403",
        "province_id": "14"
      },
      {
        "id": "140307",
        "name": "Bang Phrakhru",
        "latitude": 14.483,
        "longitude": 100.613,
        "district_id": "1403",
        "province_id": "14"
      },
      {
        "id": "140308",
        "name": "Mae La",
        "latitude": 14.503,
        "longitude": 100.619,
        "district_id": "1403",
        "province_id": "14"
      },
      {
        "id": "140309",
        "name": "Nong Pling",
        "latitude": 14.423,
        "longitude": 100.64,
        "district_id": "1403",
        "province_id": "14"
      },
      {
        "id": "140310",
        "name": "Khlong Sakae",
        "latitude": 14.424,
        "longitude": 100.604,
        "district_id": "1403",
        "province_id": "14"
      },
      {
        "id": "140311",
        "name": "Sam Thai",
        "latitude": 14.489,
        "longitude": 100.675,
        "district_id": "1403",
        "province_id": "14"
      },
      {
        "id": "140312",
        "name": "Phra Non",
        "latitude": 14.485,
        "longitude": 100.65,
        "district_id": "1403",
        "province_id": "14"
      },
      {
        "id": "140401",
        "name": "Bang Sai",
        "latitude": 14.191,
        "longitude": 100.48,
        "district_id": "1404",
        "province_id": "14"
      },
      {
        "id": "140402",
        "name": "Bang Phli",
        "latitude": 14.212,
        "longitude": 100.465,
        "district_id": "1404",
        "province_id": "14"
      },
      {
        "id": "140403",
        "name": "Sanam Chai",
        "latitude": 14.213,
        "longitude": 100.522,
        "district_id": "1404",
        "province_id": "14"
      },
      {
        "id": "140404",
        "name": "Ban Paeng",
        "latitude": 14.232,
        "longitude": 100.507,
        "district_id": "1404",
        "province_id": "14"
      },
      {
        "id": "140405",
        "name": "Na Mai",
        "latitude": 14.315,
        "longitude": 100.462,
        "district_id": "1404",
        "province_id": "14"
      },
      {
        "id": "140406",
        "name": "Bang Yitho",
        "latitude": 14.299,
        "longitude": 100.445,
        "district_id": "1404",
        "province_id": "14"
      },
      {
        "id": "140407",
        "name": "Khae Ok",
        "latitude": 14.305,
        "longitude": 100.472,
        "district_id": "1404",
        "province_id": "14"
      },
      {
        "id": "140408",
        "name": "Khae Tok",
        "latitude": 14.287,
        "longitude": 100.48,
        "district_id": "1404",
        "province_id": "14"
      },
      {
        "id": "140409",
        "name": "Chang Lek",
        "latitude": 14.278,
        "longitude": 100.453,
        "district_id": "1404",
        "province_id": "14"
      },
      {
        "id": "140410",
        "name": "Krachaeng",
        "latitude": 14.279,
        "longitude": 100.505,
        "district_id": "1404",
        "province_id": "14"
      },
      {
        "id": "140411",
        "name": "Ban Klueng",
        "latitude": 14.309,
        "longitude": 100.499,
        "district_id": "1404",
        "province_id": "14"
      },
      {
        "id": "140412",
        "name": "Chang Noi",
        "latitude": 14.252,
        "longitude": 100.505,
        "district_id": "1404",
        "province_id": "14"
      },
      {
        "id": "140413",
        "name": "Ho Mok",
        "latitude": 14.259,
        "longitude": 100.474,
        "district_id": "1404",
        "province_id": "14"
      },
      {
        "id": "140414",
        "name": "Phai Phra",
        "latitude": 14.222,
        "longitude": 100.432,
        "district_id": "1404",
        "province_id": "14"
      },
      {
        "id": "140415",
        "name": "Kok Kaeo Burapha",
        "latitude": 14.188,
        "longitude": 100.435,
        "district_id": "1404",
        "province_id": "14"
      },
      {
        "id": "140416",
        "name": "Mai Tra",
        "latitude": 14.164,
        "longitude": 100.473,
        "district_id": "1404",
        "province_id": "14"
      },
      {
        "id": "140417",
        "name": "Ban Ma",
        "latitude": 14.141,
        "longitude": 100.49,
        "district_id": "1404",
        "province_id": "14"
      },
      {
        "id": "140418",
        "name": "Ban Ko",
        "latitude": 14.236,
        "longitude": 100.46,
        "district_id": "1404",
        "province_id": "14"
      },
      {
        "id": "140419",
        "name": "Ratchakhram",
        "latitude": 14.186,
        "longitude": 100.519,
        "district_id": "1404",
        "province_id": "14"
      },
      {
        "id": "140420",
        "name": "Chang Yai",
        "latitude": 14.161,
        "longitude": 100.522,
        "district_id": "1404",
        "province_id": "14"
      },
      {
        "id": "140422",
        "name": "Chiang Rak Noi",
        "latitude": 14.134,
        "longitude": 100.561,
        "district_id": "1404",
        "province_id": "14"
      },
      {
        "id": "140423",
        "name": "Khok Chang",
        "latitude": 14.123,
        "longitude": 100.492,
        "district_id": "1404",
        "province_id": "14"
      },
      {
        "id": "140501",
        "name": "Bang Ban",
        "latitude": 14.41,
        "longitude": 100.464,
        "district_id": "1405",
        "province_id": "14"
      },
      {
        "id": "140502",
        "name": "Wat Yom",
        "latitude": 14.39,
        "longitude": 100.497,
        "district_id": "1405",
        "province_id": "14"
      },
      {
        "id": "140503",
        "name": "Sai Noi",
        "latitude": 14.407,
        "longitude": 100.486,
        "district_id": "1405",
        "province_id": "14"
      },
      {
        "id": "140504",
        "name": "Saphan Thai",
        "latitude": 14.363,
        "longitude": 100.486,
        "district_id": "1405",
        "province_id": "14"
      },
      {
        "id": "140505",
        "name": "Mahaphram",
        "latitude": 14.364,
        "longitude": 100.505,
        "district_id": "1405",
        "province_id": "14"
      },
      {
        "id": "140506",
        "name": "Kop Chao",
        "latitude": 14.347,
        "longitude": 100.485,
        "district_id": "1405",
        "province_id": "14"
      },
      {
        "id": "140507",
        "name": "Ban Khlang",
        "latitude": 14.347,
        "longitude": 100.457,
        "district_id": "1405",
        "province_id": "14"
      },
      {
        "id": "140508",
        "name": "Phra Khao",
        "latitude": 14.328,
        "longitude": 100.482,
        "district_id": "1405",
        "province_id": "14"
      },
      {
        "id": "140509",
        "name": "Namtao",
        "latitude": 14.339,
        "longitude": 100.438,
        "district_id": "1405",
        "province_id": "14"
      },
      {
        "id": "140510",
        "name": "Thang Chang",
        "latitude": 14.375,
        "longitude": 100.432,
        "district_id": "1405",
        "province_id": "14"
      },
      {
        "id": "140511",
        "name": "Wat Taku",
        "latitude": 14.388,
        "longitude": 100.424,
        "district_id": "1405",
        "province_id": "14"
      },
      {
        "id": "140512",
        "name": "Bang Luang",
        "latitude": 14.403,
        "longitude": 100.433,
        "district_id": "1405",
        "province_id": "14"
      },
      {
        "id": "140513",
        "name": "Bang Luang Dot",
        "latitude": 14.419,
        "longitude": 100.43,
        "district_id": "1405",
        "province_id": "14"
      },
      {
        "id": "140514",
        "name": "Bang Hak",
        "latitude": 14.436,
        "longitude": 100.439,
        "district_id": "1405",
        "province_id": "14"
      },
      {
        "id": "140515",
        "name": "Bang Chani",
        "latitude": 14.429,
        "longitude": 100.461,
        "district_id": "1405",
        "province_id": "14"
      },
      {
        "id": "140516",
        "name": "Ban Kum",
        "latitude": 14.436,
        "longitude": 100.492,
        "district_id": "1405",
        "province_id": "14"
      },
      {
        "id": "140601",
        "name": "Ban Len",
        "latitude": 14.241,
        "longitude": 100.598,
        "district_id": "1406",
        "province_id": "14"
      },
      {
        "id": "140602",
        "name": "Chiang Rak Noi",
        "latitude": 14.16,
        "longitude": 100.594,
        "district_id": "1406",
        "province_id": "14"
      },
      {
        "id": "140603",
        "name": "Ban Pho",
        "latitude": 14.272,
        "longitude": 100.588,
        "district_id": "1406",
        "province_id": "14"
      },
      {
        "id": "140604",
        "name": "Ban Krot",
        "latitude": 14.307,
        "longitude": 100.604,
        "district_id": "1406",
        "province_id": "14"
      },
      {
        "id": "140605",
        "name": "Bang Krasan",
        "latitude": 14.189,
        "longitude": 100.565,
        "district_id": "1406",
        "province_id": "14"
      },
      {
        "id": "140606",
        "name": "Khlong Chik",
        "latitude": 14.214,
        "longitude": 100.597,
        "district_id": "1406",
        "province_id": "14"
      },
      {
        "id": "140607",
        "name": "Ban Wa",
        "latitude": 14.258,
        "longitude": 100.616,
        "district_id": "1406",
        "province_id": "14"
      },
      {
        "id": "140608",
        "name": "Wat Yom",
        "latitude": 14.26,
        "longitude": 100.568,
        "district_id": "1406",
        "province_id": "14"
      },
      {
        "id": "140609",
        "name": "Bang Pradaeng",
        "latitude": 14.288,
        "longitude": 100.544,
        "district_id": "1406",
        "province_id": "14"
      },
      {
        "id": "140610",
        "name": "Sam Ruean",
        "latitude": 14.292,
        "longitude": 100.647,
        "district_id": "1406",
        "province_id": "14"
      },
      {
        "id": "140611",
        "name": "Ko Koet",
        "latitude": 14.206,
        "longitude": 100.539,
        "district_id": "1406",
        "province_id": "14"
      },
      {
        "id": "140612",
        "name": "Ban Phlap",
        "latitude": 14.223,
        "longitude": 100.552,
        "district_id": "1406",
        "province_id": "14"
      },
      {
        "id": "140613",
        "name": "Ban Paeng",
        "latitude": 14.239,
        "longitude": 100.557,
        "district_id": "1406",
        "province_id": "14"
      },
      {
        "id": "140614",
        "name": "Khung Lan",
        "latitude": 14.295,
        "longitude": 100.621,
        "district_id": "1406",
        "province_id": "14"
      },
      {
        "id": "140615",
        "name": "Taling Chan",
        "latitude": 14.25,
        "longitude": 100.642,
        "district_id": "1406",
        "province_id": "14"
      },
      {
        "id": "140616",
        "name": "Ban Sang",
        "latitude": 14.289,
        "longitude": 100.668,
        "district_id": "1406",
        "province_id": "14"
      },
      {
        "id": "140618",
        "name": "Khanon Luang",
        "latitude": 14.266,
        "longitude": 100.542,
        "district_id": "1406",
        "province_id": "14"
      },
      {
        "id": "140701",
        "name": "Bang Pahan",
        "latitude": 14.458,
        "longitude": 100.558,
        "district_id": "1407",
        "province_id": "14"
      },
      {
        "id": "140702",
        "name": "Khayai",
        "latitude": 14.414,
        "longitude": 100.564,
        "district_id": "1407",
        "province_id": "14"
      },
      {
        "id": "140703",
        "name": "Bang Duea",
        "latitude": 14.436,
        "longitude": 100.576,
        "district_id": "1407",
        "province_id": "14"
      },
      {
        "id": "140704",
        "name": "Sao Thong",
        "latitude": 14.496,
        "longitude": 100.549,
        "district_id": "1407",
        "province_id": "14"
      },
      {
        "id": "140705",
        "name": "Thang Klang",
        "latitude": 14.513,
        "longitude": 100.544,
        "district_id": "1407",
        "province_id": "14"
      },
      {
        "id": "140706",
        "name": "Bang Phloeng",
        "latitude": 14.5,
        "longitude": 100.577,
        "district_id": "1407",
        "province_id": "14"
      },
      {
        "id": "140707",
        "name": "Han Sang",
        "latitude": 14.512,
        "longitude": 100.517,
        "district_id": "1407",
        "province_id": "14"
      },
      {
        "id": "140708",
        "name": "Bang Nang Ra",
        "latitude": 14.474,
        "longitude": 100.531,
        "district_id": "1407",
        "province_id": "14"
      },
      {
        "id": "140709",
        "name": "Tanim",
        "latitude": 14.491,
        "longitude": 100.532,
        "district_id": "1407",
        "province_id": "14"
      },
      {
        "id": "140710",
        "name": "Thap Nam",
        "latitude": 14.464,
        "longitude": 100.508,
        "district_id": "1407",
        "province_id": "14"
      },
      {
        "id": "140711",
        "name": "Ban Ma",
        "latitude": 14.492,
        "longitude": 100.51,
        "district_id": "1407",
        "province_id": "14"
      },
      {
        "id": "140712",
        "name": "Khwan Mueang",
        "latitude": 14.444,
        "longitude": 100.536,
        "district_id": "1407",
        "province_id": "14"
      },
      {
        "id": "140713",
        "name": "Ban Li",
        "latitude": 14.449,
        "longitude": 100.521,
        "district_id": "1407",
        "province_id": "14"
      },
      {
        "id": "140714",
        "name": "Pho Sam Ton",
        "latitude": 14.421,
        "longitude": 100.547,
        "district_id": "1407",
        "province_id": "14"
      },
      {
        "id": "140715",
        "name": "Phut Lao",
        "latitude": 14.419,
        "longitude": 100.525,
        "district_id": "1407",
        "province_id": "14"
      },
      {
        "id": "140716",
        "name": "Tan En",
        "latitude": 14.524,
        "longitude": 100.563,
        "district_id": "1407",
        "province_id": "14"
      },
      {
        "id": "140717",
        "name": "Ban Khlo",
        "latitude": 14.532,
        "longitude": 100.586,
        "district_id": "1407",
        "province_id": "14"
      },
      {
        "id": "140801",
        "name": "Phak Hai",
        "latitude": 14.462,
        "longitude": 100.379,
        "district_id": "1408",
        "province_id": "14"
      },
      {
        "id": "140802",
        "name": "Ammarit",
        "latitude": 14.472,
        "longitude": 100.361,
        "district_id": "1408",
        "province_id": "14"
      },
      {
        "id": "140803",
        "name": "Ban Khae",
        "latitude": 14.495,
        "longitude": 100.405,
        "district_id": "1408",
        "province_id": "14"
      },
      {
        "id": "140804",
        "name": "Lat Nam Khem",
        "latitude": 14.482,
        "longitude": 100.393,
        "district_id": "1408",
        "province_id": "14"
      },
      {
        "id": "140805",
        "name": "Ta Lan",
        "latitude": 14.446,
        "longitude": 100.387,
        "district_id": "1408",
        "province_id": "14"
      },
      {
        "id": "140806",
        "name": "Tha Din Daeng",
        "latitude": 14.416,
        "longitude": 100.388,
        "district_id": "1408",
        "province_id": "14"
      },
      {
        "id": "140807",
        "name": "Don Lan",
        "latitude": 14.433,
        "longitude": 100.286,
        "district_id": "1408",
        "province_id": "14"
      },
      {
        "id": "140808",
        "name": "Na Khu",
        "latitude": 14.468,
        "longitude": 100.272,
        "district_id": "1408",
        "province_id": "14"
      },
      {
        "id": "140809",
        "name": "Ku Di",
        "latitude": 14.439,
        "longitude": 100.407,
        "district_id": "1408",
        "province_id": "14"
      },
      {
        "id": "140810",
        "name": "Lam Takhian",
        "latitude": 14.419,
        "longitude": 100.318,
        "district_id": "1408",
        "province_id": "14"
      },
      {
        "id": "140811",
        "name": "Khok Chang",
        "latitude": 14.5,
        "longitude": 100.388,
        "district_id": "1408",
        "province_id": "14"
      },
      {
        "id": "140812",
        "name": "Chakkarat",
        "latitude": 14.447,
        "longitude": 100.34,
        "district_id": "1408",
        "province_id": "14"
      },
      {
        "id": "140813",
        "name": "Nong Nam Yai",
        "latitude": 14.474,
        "longitude": 100.311,
        "district_id": "1408",
        "province_id": "14"
      },
      {
        "id": "140814",
        "name": "Lat Chit",
        "latitude": 14.422,
        "longitude": 100.358,
        "district_id": "1408",
        "province_id": "14"
      },
      {
        "id": "140815",
        "name": "Na Khok",
        "latitude": 14.49,
        "longitude": 100.351,
        "district_id": "1408",
        "province_id": "14"
      },
      {
        "id": "140816",
        "name": "Ban Yai",
        "latitude": 14.435,
        "longitude": 100.384,
        "district_id": "1408",
        "province_id": "14"
      },
      {
        "id": "140901",
        "name": "Phachi",
        "latitude": 14.442,
        "longitude": 100.725,
        "district_id": "1409",
        "province_id": "14"
      },
      {
        "id": "140902",
        "name": "Khok Muang",
        "latitude": 14.428,
        "longitude": 100.75,
        "district_id": "1409",
        "province_id": "14"
      },
      {
        "id": "140903",
        "name": "Rasom",
        "latitude": 14.39,
        "longitude": 100.77,
        "district_id": "1409",
        "province_id": "14"
      },
      {
        "id": "140904",
        "name": "Nong Nam Sai",
        "latitude": 14.457,
        "longitude": 100.751,
        "district_id": "1409",
        "province_id": "14"
      },
      {
        "id": "140905",
        "name": "Don Ya Nang",
        "latitude": 14.478,
        "longitude": 100.739,
        "district_id": "1409",
        "province_id": "14"
      },
      {
        "id": "140906",
        "name": "Phai Lom",
        "latitude": 14.474,
        "longitude": 100.693,
        "district_id": "1409",
        "province_id": "14"
      },
      {
        "id": "140907",
        "name": "Krachio",
        "latitude": 14.42,
        "longitude": 100.69,
        "district_id": "1409",
        "province_id": "14"
      },
      {
        "id": "140908",
        "name": "Phra Kaeo",
        "latitude": 14.44,
        "longitude": 100.675,
        "district_id": "1409",
        "province_id": "14"
      },
      {
        "id": "141001",
        "name": "Lat Bua Luang",
        "latitude": 14.193,
        "longitude": 100.319,
        "district_id": "1410",
        "province_id": "14"
      },
      {
        "id": "141002",
        "name": "Lak Chai",
        "latitude": 14.195,
        "longitude": 100.277,
        "district_id": "1410",
        "province_id": "14"
      },
      {
        "id": "141003",
        "name": "Sam Mueang",
        "latitude": 14.153,
        "longitude": 100.297,
        "district_id": "1410",
        "province_id": "14"
      },
      {
        "id": "141004",
        "name": "Phraya Banlue",
        "latitude": 14.161,
        "longitude": 100.395,
        "district_id": "1410",
        "province_id": "14"
      },
      {
        "id": "141005",
        "name": "Singhanat",
        "latitude": 14.132,
        "longitude": 100.423,
        "district_id": "1410",
        "province_id": "14"
      },
      {
        "id": "141006",
        "name": "Khu Salot",
        "latitude": 14.196,
        "longitude": 100.369,
        "district_id": "1410",
        "province_id": "14"
      },
      {
        "id": "141007",
        "name": "Khlong Phraya Banlue",
        "latitude": 14.134,
        "longitude": 100.368,
        "district_id": "1410",
        "province_id": "14"
      },
      {
        "id": "141101",
        "name": "Lam Ta Sao",
        "latitude": 14.275,
        "longitude": 100.708,
        "district_id": "1411",
        "province_id": "14"
      },
      {
        "id": "141102",
        "name": "Bo Ta Lo",
        "latitude": 14.241,
        "longitude": 100.674,
        "district_id": "1411",
        "province_id": "14"
      },
      {
        "id": "141103",
        "name": "Wang Noi",
        "latitude": 14.201,
        "longitude": 100.699,
        "district_id": "1411",
        "province_id": "14"
      },
      {
        "id": "141104",
        "name": "Lam Sai",
        "latitude": 14.2,
        "longitude": 100.641,
        "district_id": "1411",
        "province_id": "14"
      },
      {
        "id": "141105",
        "name": "Sanap Thuep",
        "latitude": 14.298,
        "longitude": 100.813,
        "district_id": "1411",
        "province_id": "14"
      },
      {
        "id": "141106",
        "name": "Phayom",
        "latitude": 14.166,
        "longitude": 100.632,
        "district_id": "1411",
        "province_id": "14"
      },
      {
        "id": "141107",
        "name": "Han Taphao",
        "latitude": 14.304,
        "longitude": 100.78,
        "district_id": "1411",
        "province_id": "14"
      },
      {
        "id": "141108",
        "name": "Wang Chula",
        "latitude": 14.229,
        "longitude": 100.758,
        "district_id": "1411",
        "province_id": "14"
      },
      {
        "id": "141109",
        "name": "Khao Ngam",
        "latitude": 14.249,
        "longitude": 100.8,
        "district_id": "1411",
        "province_id": "14"
      },
      {
        "id": "141110",
        "name": "Chamaep",
        "latitude": 14.257,
        "longitude": 100.748,
        "district_id": "1411",
        "province_id": "14"
      },
      {
        "id": "141201",
        "name": "Sena",
        "latitude": 14.328,
        "longitude": 100.404,
        "district_id": "1412",
        "province_id": "14"
      },
      {
        "id": "141202",
        "name": "Ban Phaen",
        "latitude": 14.342,
        "longitude": 100.417,
        "district_id": "1412",
        "province_id": "14"
      },
      {
        "id": "141203",
        "name": "Chao Chet",
        "latitude": 14.303,
        "longitude": 100.378,
        "district_id": "1412",
        "province_id": "14"
      },
      {
        "id": "141204",
        "name": "Sam Ko",
        "latitude": 14.306,
        "longitude": 100.399,
        "district_id": "1412",
        "province_id": "14"
      },
      {
        "id": "141205",
        "name": "Bang Nom Kho",
        "latitude": 14.292,
        "longitude": 100.424,
        "district_id": "1412",
        "province_id": "14"
      },
      {
        "id": "141206",
        "name": "Hua Wiang",
        "latitude": 14.376,
        "longitude": 100.402,
        "district_id": "1412",
        "province_id": "14"
      },
      {
        "id": "141207",
        "name": "Man Wichai",
        "latitude": 14.24,
        "longitude": 100.371,
        "district_id": "1412",
        "province_id": "14"
      },
      {
        "id": "141208",
        "name": "Ban Pho",
        "latitude": 14.351,
        "longitude": 100.394,
        "district_id": "1412",
        "province_id": "14"
      },
      {
        "id": "141209",
        "name": "Rang Chorakhe",
        "latitude": 14.351,
        "longitude": 100.366,
        "district_id": "1412",
        "province_id": "14"
      },
      {
        "id": "141210",
        "name": "Ban Krathum",
        "latitude": 14.39,
        "longitude": 100.383,
        "district_id": "1412",
        "province_id": "14"
      },
      {
        "id": "141211",
        "name": "Ban Thaeo",
        "latitude": 14.301,
        "longitude": 100.348,
        "district_id": "1412",
        "province_id": "14"
      },
      {
        "id": "141212",
        "name": "Chai Na",
        "latitude": 14.258,
        "longitude": 100.348,
        "district_id": "1412",
        "province_id": "14"
      },
      {
        "id": "141213",
        "name": "Sam Tum",
        "latitude": 14.24,
        "longitude": 100.406,
        "district_id": "1412",
        "province_id": "14"
      },
      {
        "id": "141214",
        "name": "Lat Nga",
        "latitude": 14.372,
        "longitude": 100.358,
        "district_id": "1412",
        "province_id": "14"
      },
      {
        "id": "141215",
        "name": "Don Thong",
        "latitude": 14.24,
        "longitude": 100.306,
        "district_id": "1412",
        "province_id": "14"
      },
      {
        "id": "141216",
        "name": "Ban Luang",
        "latitude": 14.278,
        "longitude": 100.401,
        "district_id": "1412",
        "province_id": "14"
      },
      {
        "id": "141217",
        "name": "Chao Sadet",
        "latitude": 14.331,
        "longitude": 100.363,
        "district_id": "1412",
        "province_id": "14"
      },
      {
        "id": "141301",
        "name": "Bang Sai",
        "latitude": 14.314,
        "longitude": 100.286,
        "district_id": "1413",
        "province_id": "14"
      },
      {
        "id": "141302",
        "name": "Kaeo Fa",
        "latitude": 14.313,
        "longitude": 100.326,
        "district_id": "1413",
        "province_id": "14"
      },
      {
        "id": "141303",
        "name": "Tao Lao",
        "latitude": 14.34,
        "longitude": 100.319,
        "district_id": "1413",
        "province_id": "14"
      },
      {
        "id": "141304",
        "name": "Plai Klat",
        "latitude": 14.382,
        "longitude": 100.315,
        "district_id": "1413",
        "province_id": "14"
      },
      {
        "id": "141305",
        "name": "Thep Mongkhon",
        "latitude": 14.236,
        "longitude": 100.258,
        "district_id": "1413",
        "province_id": "14"
      },
      {
        "id": "141306",
        "name": "Wang Phatthana",
        "latitude": 14.272,
        "longitude": 100.296,
        "district_id": "1413",
        "province_id": "14"
      },
      {
        "id": "141401",
        "name": "Khan Ham",
        "latitude": 14.335,
        "longitude": 100.641,
        "district_id": "1414",
        "province_id": "14"
      },
      {
        "id": "141402",
        "name": "Ban Chang",
        "latitude": 14.322,
        "longitude": 100.68,
        "district_id": "1414",
        "province_id": "14"
      },
      {
        "id": "141403",
        "name": "Sam Bandit",
        "latitude": 14.349,
        "longitude": 100.742,
        "district_id": "1414",
        "province_id": "14"
      },
      {
        "id": "141404",
        "name": "Ban Hip",
        "latitude": 14.372,
        "longitude": 100.712,
        "district_id": "1414",
        "province_id": "14"
      },
      {
        "id": "141405",
        "name": "Nong Mai Sung",
        "latitude": 14.376,
        "longitude": 100.751,
        "district_id": "1414",
        "province_id": "14"
      },
      {
        "id": "141406",
        "name": "Uthai",
        "latitude": 14.373,
        "longitude": 100.655,
        "district_id": "1414",
        "province_id": "14"
      },
      {
        "id": "141407",
        "name": "Sena",
        "latitude": 14.392,
        "longitude": 100.689,
        "district_id": "1414",
        "province_id": "14"
      },
      {
        "id": "141408",
        "name": "Nong Nam Som",
        "latitude": 14.32,
        "longitude": 100.714,
        "district_id": "1414",
        "province_id": "14"
      },
      {
        "id": "141409",
        "name": "Pho Sao Han",
        "latitude": 14.332,
        "longitude": 100.759,
        "district_id": "1414",
        "province_id": "14"
      },
      {
        "id": "141410",
        "name": "Thanu",
        "latitude": 14.355,
        "longitude": 100.622,
        "district_id": "1414",
        "province_id": "14"
      },
      {
        "id": "141411",
        "name": "Khao Mao",
        "latitude": 14.379,
        "longitude": 100.624,
        "district_id": "1414",
        "province_id": "14"
      },
      {
        "id": "141501",
        "name": "Hua Phai",
        "latitude": 14.532,
        "longitude": 100.525,
        "district_id": "1415",
        "province_id": "14"
      },
      {
        "id": "141502",
        "name": "Kathum",
        "latitude": 14.546,
        "longitude": 100.556,
        "district_id": "1415",
        "province_id": "14"
      },
      {
        "id": "141503",
        "name": "Maharat",
        "latitude": 14.552,
        "longitude": 100.528,
        "district_id": "1415",
        "province_id": "14"
      },
      {
        "id": "141504",
        "name": "Namtao",
        "latitude": 14.566,
        "longitude": 100.542,
        "district_id": "1415",
        "province_id": "14"
      },
      {
        "id": "141505",
        "name": "Bang Na",
        "latitude": 14.576,
        "longitude": 100.581,
        "district_id": "1415",
        "province_id": "14"
      },
      {
        "id": "141506",
        "name": "Rong Chang",
        "latitude": 14.602,
        "longitude": 100.563,
        "district_id": "1415",
        "province_id": "14"
      },
      {
        "id": "141507",
        "name": "Chao Pluk",
        "latitude": 14.584,
        "longitude": 100.538,
        "district_id": "1415",
        "province_id": "14"
      },
      {
        "id": "141508",
        "name": "Phit Phian",
        "latitude": 14.608,
        "longitude": 100.544,
        "district_id": "1415",
        "province_id": "14"
      },
      {
        "id": "141509",
        "name": "Ban Na",
        "latitude": 14.606,
        "longitude": 100.51,
        "district_id": "1415",
        "province_id": "14"
      },
      {
        "id": "141510",
        "name": "Ban Khwang",
        "latitude": 14.576,
        "longitude": 100.518,
        "district_id": "1415",
        "province_id": "14"
      },